{
  "type": "FeatureCollection",
  "features": [
    {
      "id": "35 Tongariro Drive, Aotea, Porirua",
      "properties": {
        "Address": "35 Tongariro Drive, Aotea, Porirua",
        "geo_longitude": 174.8687869,
        "geo_latitude": -41.1284418,
        "Verified": "true"
      },
      "type": "Feature",
      "geometry": {
        "type": "Point",
        "coordinates": [
          174.8687869,
          -41.1284418
        ]
      }
    },
    {
      "id": "Voyager Way, Whitby, Porirua",
      "properties": {
        "Address": "Voyager Way, Whitby, Porirua",
        "Verified": "true"
      },
      "type": "Feature",
      "geometry": {
        "type": "Point",
        "coordinates": [
          174.91056740283966,
          -41.10842700324813
        ]
      }
    },
    {
      "id": "6 Discovery Drive, Whitby, Porirua",
      "properties": {
        "marker-color": "#7e7e7e",
        "marker-size": "medium",
        "marker-symbol": "",
        "Address": "6 Discovery Drive, Whitby, Porirua",
        "Verified": "true"
      },
      "type": "Feature",
      "geometry": {
        "type": "Point",
        "coordinates": [
          174.8887503147125,
          -41.11165236847651
        ]
      }
    },
    {
      "id": "80 Joseph Banks Drive, Whitby, Porirua",
      "properties": {
        "Address": "80 Joseph Banks Drive, Whitby, Porirua",
        "geo_longitude": 174.9123601,
        "geo_latitude": -41.1089358,
        "Verified": "true"
      },
      "type": "Feature",
      "geometry": {
        "type": "Point",
        "coordinates": [
          174.9123601,
          -41.1089358
        ]
      }
    },
    {
      "id": "30 The Companionway, Whitby, Porirua",
      "properties": {
        "Address": "30 The Companionway, Whitby, Porirua",
        "geo_longitude": 174.8903654,
        "geo_latitude": -41.1141349
      },
      "type": "Feature",
      "geometry": {
        "type": "Point",
        "coordinates": [
          174.8903654,
          -41.1141349
        ]
      }
    },
    {
      "id": "2 Venus Place, Whitby, Porirua",
      "properties": {
        "Address": "2 Venus Place, Whitby, Porirua",
        "geo_longitude": 174.8841658,
        "geo_latitude": -41.1125488,
        "Verified": "true"
      },
      "type": "Feature",
      "geometry": {
        "type": "Point",
        "coordinates": [
          174.8841658,
          -41.1125488
        ]
      }
    },
    {
      "id": "16 Carlow Grove, Birchville, Upper Hutt",
      "properties": {
        "Address": "16 Carlow Grove, Birchville, Upper Hutt",
        "geo_longitude": 175.1087346,
        "geo_latitude": -41.0951264
      },
      "type": "Feature",
      "geometry": {
        "type": "Point",
        "coordinates": [
          175.1087346,
          -41.0951264
        ]
      }
    },
    {
      "id": "11 King Charles Drive, Kingsley Heights, Upper Hutt",
      "properties": {
        "Address": "11 King Charles Drive, Kingsley Heights, Upper Hutt",
        "geo_longitude": 175.0810539,
        "geo_latitude": -41.1233169
      },
      "type": "Feature",
      "geometry": {
        "type": "Point",
        "coordinates": [
          175.0810539,
          -41.1233169
        ]
      }
    },
    {
      "id": "39 Chatsworth Road, Silverstream, Upper Hutt",
      "properties": {
        "Address": "39 Chatsworth Road, Silverstream, Upper Hutt",
        "geo_longitude": 175.0213207,
        "geo_latitude": -41.14860050000001
      },
      "type": "Feature",
      "geometry": {
        "type": "Point",
        "coordinates": [
          175.0213207,
          -41.14860050000001
        ]
      }
    },
    {
      "id": "80A Pasadena Crescent, Totara Park, Upper Hutt",
      "properties": {
        "Address": "80A Pasadena Crescent, Totara Park, Upper Hutt",
        "geo_longitude": 175.0870955,
        "geo_latitude": -41.1065809
      },
      "type": "Feature",
      "geometry": {
        "type": "Point",
        "coordinates": [
          175.0870955,
          -41.1065809
        ]
      }
    },
    {
      "id": "31 Tennyson Street, Trentham, Upper Hutt",
      "properties": {
        "Address": "31 Tennyson Street, Trentham, Upper Hutt",
        "geo_longitude": 175.0452773,
        "geo_latitude": -41.1233728
      },
      "type": "Feature",
      "geometry": {
        "type": "Point",
        "coordinates": [
          175.0452773,
          -41.1233728
        ]
      }
    },
    {
      "id": "103 Amesbury Drive, Churton Park, Wellington",
      "properties": {
        "Address": "103 Amesbury Drive, Churton Park, Wellington",
        "geo_longitude": 174.8032727,
        "geo_latitude": -41.1953335
      },
      "type": "Feature",
      "geometry": {
        "type": "Point",
        "coordinates": [
          174.8032727,
          -41.1953335
        ]
      }
    },
    {
      "id": "88 The Parade, Island Bay, Wellington",
      "properties": {
        "Address": "88 The Parade, Island Bay, Wellington",
        "geo_longitude": 174.7733984,
        "geo_latitude": -41.3323627
      },
      "type": "Feature",
      "geometry": {
        "type": "Point",
        "coordinates": [
          174.7733984,
          -41.3323627
        ]
      }
    },
    {
      "id": "2 Wentworth Street, Mornington, Wellington",
      "properties": {
        "Address": "2 Wentworth Street, Mornington, Wellington",
        "geo_longitude": 174.763581,
        "geo_latitude": -41.3177987
      },
      "type": "Feature",
      "geometry": {
        "type": "Point",
        "coordinates": [
          174.763581,
          -41.3177987
        ]
      }
    },
    {
      "id": "59 Fyvie Avenue, Tawa, Wellington",
      "properties": {
        "Address": "59 Fyvie Avenue, Tawa, Wellington",
        "geo_longitude": 174.8269859,
        "geo_latitude": -41.1599409,
        "Verified": ""
      },
      "type": "Feature",
      "geometry": {
        "type": "Point",
        "coordinates": [
          174.8269859,
          -41.1599409
        ]
      }
    },
    {
      "type": "Feature",
      "properties": {
        "Address": "41 Joseph Banks Drive, Whitby, Porirua",
        "ImageURL": "http://xmaslightsmap.github.io/xmaslightsmap/assets/photos/41-joseph-banks-drive-whitby.jpg",
        "ThumbnailURL": "http://xmaslightsmap.github.io/xmaslightsmap/assets/photos/41-joseph-banks-drive-whitby.thumb.jpg",
        "Verified": "true",
        "MoreInfo": "Birthright present drop"
      },
      "geometry": {
        "type": "Point",
        "coordinates": [
          174.90720391273499,
          -41.10792580445309
        ]
      }
    },
    {
      "id": "91 Joesph Banks Drive, Whitby, Porirua",
      "properties": {
        "Address": "91 Joesph Banks Drive, Whitby, Porirua",
        "geo_longitude": 174.9142074,
        "geo_latitude": -41.1073363,
        "Verified": ""
      },
      "type": "Feature",
      "geometry": {
        "type": "Point",
        "coordinates": [
          174.9142074,
          -41.1073363
        ]
      }
    },
    {
      "id": "17 The Yardarm, Whitby, Porirua",
      "properties": {
        "Address": "17 The Yardarm, Whitby, Porirua",
        "geo_longitude": 174.8958492,
        "geo_latitude": -41.1126975,
        "Verified": ""
      },
      "type": "Feature",
      "geometry": {
        "type": "Point",
        "coordinates": [
          174.8958492,
          -41.1126975
        ]
      }
    },
    {
      "id": "Baptist Church, Whitby",
      "properties": {
        "Address": "Baptist Church, Whitby",
        "geo_longitude": 174.8929016,
        "geo_latitude": -41.1187591,
        "Verified": "",
        "MoreInfo": "TBA"
      },
      "type": "Feature",
      "geometry": {
        "type": "Point",
        "coordinates": [
          174.8929016,
          -41.1187591
        ]
      }
    },
    {
      "id": "Cannon Lane, Whitby",
      "properties": {
        "marker-color": "#7e7e7e",
        "marker-size": "medium",
        "marker-symbol": "",
        "Address": "Cannon Lane, Whitby",
        "geo_longitude": 174.8929016,
        "geo_latitude": -41.1187591,
        "Verified": "true"
      },
      "type": "Feature",
      "geometry": {
        "type": "Point",
        "coordinates": [
          174.89026308059692,
          -41.11291337044321
        ]
      }
    },
    {
      "id": "34 Woodman Drive, Tawa",
      "properties": {
        "Address": "34 Woodman Drive, Tawa",
        "geo_longitude": 174.8386497,
        "geo_latitude": -41.165822,
        "Verified": "",
        "MoreInfo": "From 12 Dec"
      },
      "type": "Feature",
      "geometry": {
        "type": "Point",
        "coordinates": [
          174.8386497,
          -41.165822
        ]
      }
    },
    {
      "id": "46 Woodman Drive, Tawa",
      "properties": {
        "Address": "46 Woodman Drive, Tawa",
        "geo_longitude": 174.8378337,
        "geo_latitude": -41.1666511,
        "Verified": ""
      },
      "type": "Feature",
      "geometry": {
        "type": "Point",
        "coordinates": [
          174.8378337,
          -41.1666511
        ]
      }
    },
    {
      "id": "50 Woodman Drive, Tawa",
      "properties": {
        "Address": "50 Woodman Drive, Tawa",
        "geo_longitude": 174.8372768,
        "geo_latitude": -41.1663416,
        "Verified": ""
      },
      "type": "Feature",
      "geometry": {
        "type": "Point",
        "coordinates": [
          174.8372768,
          -41.1663416
        ]
      }
    },
    {
      "id": "95 Woodman Drive, Tawa",
      "properties": {
        "Address": "95 Woodman Drive, Tawa",
        "geo_longitude": 174.8350208,
        "geo_latitude": -41.16831,
        "Verified": ""
      },
      "type": "Feature",
      "geometry": {
        "type": "Point",
        "coordinates": [
          174.8350208,
          -41.16831
        ]
      }
    },
    {
      "id": "19 Samuel Drive, Whitby",
      "properties": {
        "Verified": "",
        "Address": "19 Samuel Drive, Whitby",
        "geo_accuracy": "ROOFTOP",
        "geo_longitude": 174.9073915,
        "geo_latitude": -41.1103451
      },
      "type": "Feature",
      "geometry": {
        "type": "Point",
        "coordinates": [
          174.9073915,
          -41.1103451
        ]
      }
    },
    {
      "id": "5 Muturangi Grove, Elsdon",
      "properties": {
        "Address": "5 Muturangi Grove, Elsdon",
        "geo_accuracy": "ROOFTOP",
        "Verified": "",
        "geo_longitude": 174.8298286,
        "geo_latitude": -41.1295007
      },
      "type": "Feature",
      "geometry": {
        "type": "Point",
        "coordinates": [
          174.8298286,
          -41.1295007
        ]
      }
    },
    {
      "id": "103 Gloaming Hill, Titahi Bay",
      "properties": {
        "Address": "103 Gloaming Hill",
        "geo_accuracy": "ROOFTOP",
        "Verified": "",
        "geo_longitude": 174.8485988,
        "geo_latitude": -41.107291
      },
      "type": "Feature",
      "geometry": {
        "type": "Point",
        "coordinates": [
          174.8485988,
          -41.107291
        ]
      }
    },
    {
      "id": "96 Navigation Drive, Whitby",
      "properties": {
        "Address": "96 Navigation Drive, Whitby",
        "geo_accuracy": "ROOFTOP",
        "Verified": "",
        "geo_longitude": 174.9048449,
        "geo_latitude": -41.1159015
      },
      "type": "Feature",
      "geometry": {
        "type": "Point",
        "coordinates": [
          174.9048449,
          -41.1159015
        ]
      }
    },
    {
      "type": "Feature",
      "properties": {
        "Verified": "true",
        "Address": "Voyager Way",
        "geo_longitude": ""
      },
      "geometry": {
        "type": "Polygon",
        "coordinates": [
          [
            [
              174.9096715450287,
              -41.10836637456504
            ],
            [
              174.9102884531021,
              -41.108404772737494
            ],
            [
              174.91038769483566,
              -41.108319892536755
            ],
            [
              174.91051644086838,
              -41.108271389515636
            ],
            [
              174.91060227155685,
              -41.10826734759559
            ],
            [
              174.91071224212646,
              -41.10826734759559
            ],
            [
              174.91074711084366,
              -41.108305745825966
            ],
            [
              174.91074711084366,
              -41.10838254221934
            ],
            [
              174.91072565317154,
              -41.108499757593954
            ],
            [
              174.91066932678223,
              -41.10852805092888
            ],
            [
              174.90966349840164,
              -41.10845731756869
            ],
            [
              174.9096715450287,
              -41.10836637456504
            ]
          ]
        ]
      }
    },
    {
      "type": "Feature",
      "properties": {
        "marker-color": "#7e7e7e",
        "marker-size": "medium",
        "marker-symbol": "",
        "Address": "72 Mercury Way",
        "Verified": "true"
      },
      "geometry": {
        "type": "Point",
        "coordinates": [
          174.8845338821411,
          -41.111070359399655
        ]
      }
    },
    {
      "type": "Feature",
      "properties": {
        "marker-color": "#7e7e7e",
        "marker-size": "medium",
        "marker-symbol": "",
        "Address": "4 Cedar Court",
        "Verified": "true"
      },
      "geometry": {
        "type": "Point",
        "coordinates": [
          174.8898446559906,
          -41.11383485656316
        ]
      }
    },
    {
      "type": "Feature",
      "properties": {
        "marker-color": "#7e7e7e",
        "marker-size": "medium",
        "marker-symbol": "",
        "Address": "6 Observatory Close",
        "Verified": "true"
      },
      "geometry": {
        "type": "Point",
        "coordinates": [
          174.90132451057434,
          -41.10934855233851
        ]
      }
    },
    {
      "type": "Feature",
      "properties": {
        "Address": "86 Navigation Drive",
        "geo_longitude": "",
        "geo_latitude": "",
        "Verified": "true"
      },
      "geometry": {
        "type": "Point",
        "coordinates": [
          174.90501523017883,
          -41.115653541210854
        ]
      }
    },
    {
      "type": "Feature",
      "properties": {
        "marker-color": "#7e7e7e",
        "marker-size": "medium",
        "marker-symbol": "",
        "Address": "109 Leeward Drive",
        "Verified": "true"
      },
      "geometry": {
        "type": "Point",
        "coordinates": [
          174.88414227962494,
          -41.11270320513078
        ]
      }
    }
  ]
}